[{"name":"Wisozk, Kemmer and Greenholt","address":"Suite 73","longitude":57.536292,"latitude":22.9171031},
{"name":"Feeney, Ratke and Connelly","address":"19th Floor","longitude":-7.5388857,"latitude":40.6207889},
{"name":"Kutch Group","address":"Room 885","longitude":15.6125252,"latitude":46.5734584},
{"name":"Glover, Ritchie and Hauck","address":"8th Floor","longitude":114.3787108,"latitude":-8.2334215},
{"name":"Jaskolski-Heller","address":"PO Box 93666","longitude":-9.2729402,"latitude":39.0961273},
{"name":"Olson, Lindgren and Gulgowski","address":"Room 1430","longitude":97.2005806,"latitude":3.8149378},
{"name":"Reichel-Koelpin","address":"PO Box 47507","longitude":13.8300629,"latitude":58.3493356},
{"name":"Herman, Wisoky and Carter","address":"9th Floor","longitude":11.4963935,"latitude":2.0779721},
{"name":"Koch, Rath and Fisher","address":"Room 1818","longitude":-75.9373449,"latitude":2.013818},
{"name":"Bayer and Sons","address":"7th Floor","longitude":32.2925645,"latitude":60.0016249},
{"name":"Schmeler-Nienow","address":"Apt 638","longitude":110.246349,"latitude":34.544296},
{"name":"Krajcik-Beer","address":"Room 215","longitude":96.80311,"latitude":47.49714},
{"name":"Runolfsson-Schaden","address":"Room 151","longitude":136.7941217,"latitude":36.6714007},
{"name":"Bradtke, Balistreri and Gibson","address":"Room 1734","longitude":105.9200531,"latitude":-6.2433851},
{"name":"Gerlach LLC","address":"Apt 1948","longitude":113.641688,"latitude":28.168791},
{"name":"DuBuque Inc","address":"Room 813","longitude":14.7986888,"latitude":50.5037851},
{"name":"Zieme, Schoen and Breitenberg","address":"Room 20","longitude":47.3045126,"latitude":51.1018522},
{"name":"Schiller, Bogisich and Botsford","address":"9th Floor","longitude":40.2098294,"latitude":47.7314993},
{"name":"Carter, Fay and Beatty","address":"Room 669","longitude":36.0391858,"latitude":49.9482828},
{"name":"Conroy, Witting and Yost","address":"Room 1237","longitude":-89.2894733,"latitude":13.6757837},
{"name":"Smith, Huels and Jacobson","address":"9th Floor","longitude":12.3176309,"latitude":58.276821},
{"name":"West, Rempel and Jacobson","address":"PO Box 16192","longitude":-81.3756862,"latitude":13.3875121},
{"name":"Schaden and Sons","address":"Suite 50","longitude":106.4352907,"latitude":29.4778934},
{"name":"Schroeder, Gottlieb and Torp","address":"Room 1393","longitude":117.146885,"latitude":35.408609},
{"name":"Emard, Konopelski and Heller","address":"Suite 76","longitude":121.5166702,"latitude":18.3999996},
{"name":"Romaguera-Larkin","address":"Room 1946","longitude":115.996709,"latitude":33.052654},
{"name":"Koss-Barrows","address":"PO Box 59214","longitude":144.9633285,"latitude":-37.7236851},
{"name":"Homenick-Hilll","address":"Room 1101","longitude":123.6091507,"latitude":9.9153112},
{"name":"Koelpin-Rodriguez","address":"Apt 629","longitude":20.0003019,"latitude":42.1874125},
{"name":"Wilderman Group","address":"8th Floor","longitude":-74.755201,"latitude":10.789771},
{"name":"Langworth Inc","address":"PO Box 27515","longitude":35.542659,"latitude":32.970422},
{"name":"Jerde-West","address":"Room 70","longitude":64.81142,"latitude":39.50308},
{"name":"Monahan-O'Conner","address":"PO Box 43527","longitude":113.893331,"latitude":23.417161},
{"name":"Thompson-Smitham","address":"2nd Floor","longitude":114.003577,"latitude":22.915288},
{"name":"Rippin, Labadie and Kuvalis","address":"Apt 1702","longitude":138.439631,"latitude":38.0775948},
{"name":"O'Hara Inc","address":"Suite 69","longitude":101.766228,"latitude":36.650038},
{"name":"Beier, Erdman and Pouros","address":"Apt 1724","longitude":13.0953584,"latitude":57.7189182},
{"name":"Pacocha Group","address":"Room 1133","longitude":111.1470115,"latitude":-6.7149192},
{"name":"Bogisich Group","address":"3rd Floor","longitude":140.276147,"latitude":-6.080007},
{"name":"Prosacco-Kilback","address":"Suite 64","longitude":105.9141793,"latitude":-6.4594857},
{"name":"Swaniawski, Bins and Crona","address":"Apt 625","longitude":27.6670286,"latitude":53.9804128},
{"name":"Gerhold Inc","address":"Apt 1760","longitude":28.2468148,"latitude":-28.7653754},
{"name":"Baumbach-Reichel","address":"Suite 62","longitude":123.7805,"latitude":-8.244},
{"name":"Mertz-Schmidt","address":"Suite 14","longitude":113.2344326,"latitude":48.5686975},
{"name":"Cremin Group","address":"Apt 1966","longitude":110.187052,"latitude":20.810762},
{"name":"Heller-Mohr","address":"Suite 100","longitude":43.3592596,"latitude":56.3137647},
{"name":"Haley-Donnelly","address":"Room 490","longitude":-113.8707312,"latitude":50.5801021},
{"name":"Corkery-Schiller","address":"Apt 152","longitude":37.9366941,"latitude":59.1389119},
{"name":"Grimes-Corwin","address":"15th Floor","longitude":114.886335,"latitude":40.767544},
{"name":"Mills, McCullough and Murazik","address":"19th Floor","longitude":113.6886,"latitude":-7.0621},
{"name":"Rogahn Inc","address":"Suite 12","longitude":26.4498912,"latitude":43.8484382},
{"name":"Stark Inc","address":"Suite 59","longitude":-8.344485,"latitude":41.2263185},
{"name":"Sipes, O'Kon and Nitzsche","address":"Apt 1259","longitude":-88.3506468,"latitude":13.3793771},
{"name":"Wiegand and Sons","address":"PO Box 18223","longitude":113.6799766,"latitude":-1.9735657},
{"name":"Lynch LLC","address":"Suite 71","longitude":111.5200007,"latitude":-6.9424923},
{"name":"Bednar Inc","address":"Room 130","longitude":-46.5881754,"latitude":-23.3213892},
{"name":"Shields-Friesen","address":"Suite 26","longitude":11.9641514,"latitude":57.5798009},
{"name":"Schulist and Sons","address":"Room 2000","longitude":11.9070339,"latitude":57.6902027},
{"name":"Schulist and Sons","address":"PO Box 39979","longitude":101.207047,"latitude":16.0045432},
{"name":"Rice-Labadie","address":"Apt 1690","longitude":-75.3412179,"latitude":-11.335798},
{"name":"Douglas LLC","address":"6th Floor","longitude":1.9697936,"latitude":48.8276508},
{"name":"Funk-Murray","address":"PO Box 99001","longitude":111.033425,"latitude":38.491235},
{"name":"Pagac-Toy","address":"Apt 583","longitude":-91.1118075,"latitude":42.5420213},
{"name":"Witting, Johns and Gislason","address":"PO Box 37732","longitude":69.1963258,"latitude":28.7382793},
{"name":"Terry-Bradtke","address":"PO Box 98276","longitude":136.2423721,"latitude":35.2571984},
{"name":"Schowalter-Kozey","address":"Room 550","longitude":5.9698278,"latitude":50.9440122},
{"name":"Bartell-Ortiz","address":"Room 380","longitude":2.881818,"latitude":48.957695},
{"name":"Graham-Shanahan","address":"Room 1734","longitude":14.4681017,"latitude":49.2952364},
{"name":"Bartell and Sons","address":"Room 903","longitude":0.1924459,"latitude":47.9956173},
{"name":"Collier and Sons","address":"Suite 14","longitude":-86.0198103,"latitude":12.0806213},
{"name":"Wiegand, Farrell and Roob","address":"Room 1691","longitude":-104.9126044,"latitude":27.1291264},
{"name":"Koelpin LLC","address":"PO Box 66054","longitude":101.5326734,"latitude":3.0100681},
{"name":"Waelchi Inc","address":"Apt 961","longitude":115.7834972,"latitude":36.3081761},
{"name":"D'Amore, Robel and Torphy","address":"Room 46","longitude":113.778639,"latitude":26.480043},
{"name":"Bogan and Sons","address":"2nd Floor","longitude":109.1259181,"latitude":-6.9391309},
{"name":"Spencer, Wiza and Wilkinson","address":"2nd Floor","longitude":44.32414,"latitude":13.91581},
{"name":"Lowe and Sons","address":"11th Floor","longitude":37.6642542,"latitude":55.7393377},
{"name":"Willms, Abernathy and Wolff","address":"Apt 278","longitude":17.5208372,"latitude":59.5721558},
{"name":"West, Upton and Gerhold","address":"15th Floor","longitude":124.770656,"latitude":8.579016},
{"name":"Kassulke LLC","address":"15th Floor","longitude":33.4075149,"latitude":-3.5594169},
{"name":"O'Hara, Stokes and Strosin","address":"Room 813","longitude":4.647618,"latitude":12.4069994},
{"name":"Schuster-Skiles","address":"Apt 861","longitude":-47.5717516,"latitude":-22.4101426},
{"name":"Mraz Inc","address":"Apt 1228","longitude":33.9750018,"latitude":-3.2409636},
{"name":"Lueilwitz-Johnston","address":"8th Floor","longitude":-117.3028803,"latitude":33.192168},
{"name":"Gottlieb, O'Hara and Johnston","address":"15th Floor","longitude":108.2080973,"latitude":-6.858925},
{"name":"Rath-Corwin","address":"Suite 63","longitude":111.1182544,"latitude":-7.4111241},
{"name":"Pagac, Harris and Stracke","address":"PO Box 91404","longitude":114.5,"latitude":-8.2},
{"name":"Mosciski-Jast","address":"Suite 99","longitude":13.2057597,"latitude":12.4860074},
{"name":"Watsica, Nolan and Graham","address":"Suite 9","longitude":39.1162056,"latitude":45.0222956},
{"name":"Rowe, Schaefer and Hagenes","address":"Apt 415","longitude":-4.215396,"latitude":35.0785984},
{"name":"Schulist, Kling and Feil","address":"Apt 603","longitude":-72.1712309,"latitude":8.1713638},
{"name":"Stokes Group","address":"Room 426","longitude":104.64117,"latitude":33.08038},
{"name":"McClure-Reynolds","address":"10th Floor","longitude":37.500595,"latitude":55.807167},
{"name":"Upton LLC","address":"PO Box 42079","longitude":108.6235004,"latitude":-6.8016236},
{"name":"Ebert, Simonis and Smitham","address":"Room 257","longitude":73.1990129,"latitude":32.5443894},
{"name":"Cremin-Bednar","address":"Room 1704","longitude":20.1093853,"latitude":50.0201},
{"name":"Predovic and Sons","address":"Suite 97","longitude":107.468023,"latitude":31.209571},
{"name":"Swaniawski-Schmidt","address":"10th Floor","longitude":117.661082,"latitude":39.029567},
{"name":"Bartoletti, Grant and Wilkinson","address":"Apt 1433","longitude":136.0369403,"latitude":-4.0087147},
{"name":"Carter-Cormier","address":"PO Box 74108","longitude":120.3542849,"latitude":16.0464514}]